lat,lon,id,dest_type,name,hazard,operational
29.72221478,-95.4423051,0,medical_clinic,AFC Urgent Care Houston,hurricane,TRUE
29.71211951,-95.31237101,1,medical_clinic,Accident Injury Rehab Clinic,hurricane,FALSE
30.05490254,-95.18707433,2,medical_clinic,Action Chiropractic,hurricane,FALSE
29.7869157,-95.53070255,3,medical_clinic,Ageless Men's Health,hurricane,FALSE
29.81371589,-95.40970088,4,medical_clinic,AnyLabTestNow,hurricane,FALSE
29.54044564,-95.12796667,5,medical_clinic,Bay Area Surgicare Center,hurricane,FALSE
29.69868052,-95.39436903,6,medical_clinic,Baylor College of Medicine Medical Center,hurricane,FALSE
29.73325851,-95.41842659,7,medical_clinic,Baylor Family Practice,hurricane,FALSE
29.70527972,-95.42066229,8,medical_clinic,Baylor Saint Luke’s Emergency Center–Holcombe,hurricane,FALSE
29.8023383,-95.43211178,9,medical_clinic,Bayou City Healthcare,hurricane,FALSE
29.74469139,-94.9766751,10,medical_clinic,Baytown Health Center,hurricane,FALSE
29.96612527,-95.54075544,11,medical_clinic,Bellissima Women's Clinic,hurricane,FALSE
30.11975863,-95.37914858,12,medical_clinic,Bender's Landing Urgent Care,hurricane,FALSE
29.67613882,-95.42686199,13,medical_clinic,Brae Valley Surgical Center,hurricane,FALSE
29.78595843,-95.68678621,14,medical_clinic,Clear Dermatology,hurricane,FALSE
30.10263853,-95.23528852,15,medical_clinic,Clinica Hispana,hurricane,FALSE
29.84482209,-95.38480299,16,medical_clinic,Clinica Hispana,hurricane,FALSE
29.83716651,-95.37651012,17,medical_clinic,Clinica Hispana Berry,hurricane,FALSE
29.70458391,-95.3590052,18,medical_clinic,Clutch City Dialysis,hurricane,FALSE
29.89562889,-95.68303521,19,medical_clinic,Cy-Fair Medical Partners,hurricane,FALSE
29.92589208,-95.58811783,20,medical_clinic,Cy-Fair Surgery Center,hurricane,FALSE
29.83876635,-95.37627532,21,medical_clinic,DaVita Dialysis,hurricane,FALSE
30.13143772,-95.23816931,22,medical_clinic,DaVita Dialysis,hurricane,FALSE
29.83318559,-95.38331679,23,medical_clinic,DaVita Dialysis,hurricane,FALSE
29.99371027,-95.73903849,24,medical_clinic,DaVita Dialysis,hurricane,FALSE
29.74299115,-95.34851317,25,medical_clinic,DaVita Summit Dialysis Center,hurricane,FALSE
29.80463602,-95.38854911,26,medical_clinic,Davita,hurricane,FALSE
29.74429291,-95.36691856,27,medical_clinic,Davita Dialysis,hurricane,FALSE
29.7726621,-95.39889529,28,medical_clinic,Doctors Express Urgent Care,hurricane,FALSE
29.77637302,-95.82252948,29,medical_clinic,ERKaty,hurricane,FALSE
29.73494846,-95.30588421,30,medical_clinic,East Central Houston Dialysis Center,hurricane,FALSE
29.68012077,-95.57229091,31,medical_clinic,El Franco Lee Health Center,hurricane,FALSE
30.06474254,-95.24611081,32,medical_clinic,Epione Health Clinic,hurricane,FALSE
30.13085282,-95.23271762,33,medical_clinic,Express Family Clinic,hurricane,FALSE
30.06463584,-95.24614031,34,medical_clinic,Family Health Clinic,hurricane,FALSE
29.79907611,-95.71992341,35,medical_clinic,Family Medicine,hurricane,FALSE
29.91539588,-95.48560776,36,medical_clinic,First Choice Emergency Room,hurricane,FALSE
29.76275734,-95.84132308,37,medical_clinic,First Choice Emergency Room,hurricane,FALSE
29.92544291,-95.19633696,38,medical_clinic,First Choice Emergency Room,hurricane,FALSE
29.99162157,-95.74713349,39,medical_clinic,First Choice Emergency Room,hurricane,FALSE
29.65274871,-95.03129839,40,medical_clinic,First Choice Emergency Room,hurricane,FALSE
29.75207731,-95.62471093,41,medical_clinic,First Choice Emergency Room,hurricane,FALSE
29.58149075,-95.56463285,42,medical_clinic,Fresenius Kidney Care Fort Bend,hurricane,FALSE
29.58251764,-95.52898966,43,medical_clinic,Fresenius Kidney Care Missouri City,hurricane,FALSE
29.84688553,-95.40825581,44,medical_clinic,Grainger Diagnostic Clinic,hurricane,FALSE
29.70393802,-95.42140209,45,medical_clinic,Gramercy Outpatient Surgery Center,hurricane,FALSE
29.70397431,-95.29667652,46,medical_clinic,Gulfgate Clinic,hurricane,FALSE
29.69976339,-95.28560796,47,medical_clinic,Gulfgate Community Health Center,hurricane,FALSE
29.93563084,-95.24471672,48,medical_clinic,HealthOne Emergency Care,hurricane,FALSE
30.06018724,-95.24799991,49,medical_clinic,Her Healthcare,hurricane,FALSE
29.55157745,-95.58575495,50,medical_clinic,Hospitality Urgent Care,hurricane,FALSE
29.60449204,-95.63182544,51,medical_clinic,Houston Eye Associates,hurricane,FALSE
29.81406559,-95.39825779,52,medical_clinic,Houston Heights Emergency Room,hurricane,FALSE
29.74996551,-95.49980896,53,medical_clinic,Houston Methodist Emergency Care,hurricane,FALSE
29.72212761,-95.4590253,54,medical_clinic,Houston Methodist Orthopedics,hurricane,FALSE
29.92727768,-95.58461923,55,medical_clinic,Houston Revival Center,hurricane,FALSE
29.701068,-95.39268551,56,medical_clinic,Jamail Specialty Care Center,hurricane,FALSE
29.80147341,-95.72007091,57,medical_clinic,Katy Centro Medico Hispano,hurricane,FALSE
29.68815382,-95.46067698,58,medical_clinic,Kelsey Seybold clinic,hurricane,FALSE
30.04594304,-95.18326143,59,medical_clinic,Kelsey-Sebold Clinic,hurricane,TRUE
30.05048124,-95.24705972,60,medical_clinic,Kingwood Spine and Wellness,hurricane,FALSE
29.88287428,-95.39136049,61,medical_clinic,La Michoacana Medical Clinic,hurricane,TRUE
29.71784141,-95.29415612,62,medical_clinic,Lawndale Medical Clinic,hurricane,FALSE
29.75613503,-95.62606957,63,medical_clinic,Lifeline Urgent Care,hurricane,FALSE
29.82198149,-95.40974838,64,medical_clinic,Lifesavers 24/7 Emergency Room,hurricane,FALSE
29.69541169,-95.39893405,65,medical_clinic,MD Anderson Proton Therapy Center,hurricane,FALSE
29.78622015,-95.68704801,66,medical_clinic,Manis Health,hurricane,FALSE
29.72940541,-95.41252929,67,medical_clinic,Maxim Hair Restoration,hurricane,FALSE
29.81660691,-95.76994749,68,medical_clinic,MedExpress,hurricane,FALSE
29.76995811,-95.59077504,69,medical_clinic,MedSpring Urgent Care,hurricane,FALSE
29.78714182,-95.78723815,70,medical_clinic,Medical Plaza 1,hurricane,FALSE
29.78714639,-95.78827167,71,medical_clinic,Medical Plaza 2,hurricane,FALSE
29.77433416,-95.39110324,72,medical_clinic,Memorial Hermann Convenient Care Center,hurricane,FALSE
30.08640484,-95.53553234,73,medical_clinic,Memorial Hermann Convenient Care Center in Spring,hurricane,FALSE
29.73448281,-95.42250498,74,medical_clinic,Memorial Hermann Imaging Center,hurricane,FALSE
30.04760814,-95.18379613,75,medical_clinic,Memorial Hermann Medical Group,hurricane,TRUE
29.90440728,-95.63178522,76,medical_clinic,Memorial Hermann Medical Group Copperfield,hurricane,FALSE
30.04752804,-95.18397993,77,medical_clinic,Memorial Hermann Sports Medicine and Rehabilitation,hurricane,TRUE
29.7939911,-95.51362716,78,medical_clinic,Memorial MRI & Diagnostic,hurricane,FALSE
29.7764978,-95.41127099,79,medical_clinic,Men's T Clinic,hurricane,FALSE
29.74391871,-95.3645661,80,medical_clinic,Midtown Pain & Rehabilitation Center,hurricane,FALSE
29.74468441,-95.36528061,81,medical_clinic,Midtown Surgical Center,hurricane,FALSE
29.86113899,-95.64573602,82,medical_clinic,Neighbors Emergency Center,hurricane,TRUE
29.89677508,-95.63704452,83,medical_clinic,Next Level Urgent Care,hurricane,FALSE
29.82736439,-95.42923458,84,medical_clinic,Night Light Pediatric Urgent Care,hurricane,FALSE
29.99356397,-95.73972509,85,medical_clinic,North Cypress Emergency Room,hurricane,FALSE
30.02321485,-95.43535677,86,medical_clinic,North Houston Endoscopy & Surgery,hurricane,FALSE
29.8121318,-95.4352911,87,medical_clinic,Physician Specialty Center,hurricane,FALSE
29.91683846,-95.63069037,88,medical_clinic,Placemark,hurricane,FALSE
30.07350008,-95.50374137,89,medical_clinic,Placemark,hurricane,FALSE
29.9445912,-95.64776562,90,medical_clinic,Placemark,hurricane,TRUE
29.91627814,-95.63078268,91,medical_clinic,Placemark,hurricane,FALSE
29.72278065,-95.46764382,92,medical_clinic,Placemark,hurricane,FALSE
29.70403532,-95.46817112,93,medical_clinic,Placemark,hurricane,FALSE
29.80113019,-95.42547574,94,medical_clinic,Placemark,hurricane,FALSE
29.92015211,-95.6135122,95,medical_clinic,Placemark,hurricane,FALSE
30.073527,-95.49851121,96,medical_clinic,Placemark,hurricane,FALSE
29.91607415,-95.63117262,97,medical_clinic,Placemark,hurricane,FALSE
29.73626883,-95.57222597,98,medical_clinic,Placemark,hurricane,FALSE
29.91669626,-95.62970778,99,medical_clinic,Placemark,hurricane,FALSE
29.91907198,-95.61259096,100,medical_clinic,Placemark,hurricane,FALSE
29.70650882,-95.48312497,101,medical_clinic,Planned Parenthood,hurricane,FALSE
30.06062364,-95.24788911,102,medical_clinic,Quest Diagnostics,hurricane,FALSE
29.75380321,-95.40610399,103,medical_clinic,Restore Hyper Wellness & Cryotherapy,hurricane,FALSE
29.72573731,-95.3774278,104,medical_clinic,Rheumatic Disease Clinic of Houston,hurricane,FALSE
29.73109201,-95.36187415,105,medical_clinic,Riverside Dialysis Center,hurricane,FALSE
29.72583652,-95.31593566,106,medical_clinic,San Antonio Clinic,hurricane,FALSE
29.72605281,-95.31744861,107,medical_clinic,Santa Clara Family Clinic,hurricane,FALSE
29.81806399,-95.42916958,108,medical_clinic,Select Physical Therapy,hurricane,FALSE
29.72277981,-95.46763637,109,medical_clinic,SignatureCare Emergency Center,hurricane,FALSE
29.73627771,-95.57222585,110,medical_clinic,SignatureCare Emergency Center,hurricane,FALSE
29.70524124,-95.42151166,111,medical_clinic,"Spencer R. Berthelsen, M.D., Main Campus",hurricane,FALSE
29.8003115,-95.49449276,112,medical_clinic,Spring Branch Hillendahl Clinic,hurricane,FALSE
30.05772295,-95.54400504,113,medical_clinic,Spring Urgent Care,hurricane,FALSE
29.93522626,-95.21523343,114,medical_clinic,Summer Creek Physicians,hurricane,FALSE
29.80669629,-95.39908059,115,medical_clinic,Texas Children's Pedatrics,hurricane,FALSE
29.70445501,-95.34483721,116,medical_clinic,Texas Children's Pediatrics Cullen,hurricane,FALSE
29.69621731,-95.29714312,117,medical_clinic,Texas Children's Pediatrics Gulfgate,hurricane,FALSE
30.08344711,-95.62902474,118,medical_clinic,Texas Sports Medicine Center,hurricane,FALSE
30.04869774,-95.23561742,119,medical_clinic,The Center for Wound Care,hurricane,FALSE
30.04870154,-95.23545392,120,medical_clinic,The Woman's Place Kingwood,hurricane,FALSE
29.7767746,-95.3654535,121,medical_clinic,Thomas Street Health Center,hurricane,FALSE
30.05183984,-95.18625163,122,medical_clinic,Town Center Family Practice,hurricane,TRUE
30.04834454,-95.18523263,123,medical_clinic,Town Center Foot and Ankle,hurricane,TRUE
29.71881701,-95.34433449,124,medical_clinic,UH Health Center,hurricane,FALSE
30.13914292,-95.22694662,125,medical_clinic,UTMB Health Regional Maternal and Child Health Program,hurricane,FALSE
29.93512286,-95.21524003,126,medical_clinic,Urgent Care & Weight Loss,hurricane,FALSE
29.7076125,-95.50022692,127,medical_clinic,Vallbona Health Center,hurricane,FALSE
29.85035218,-95.38396319,128,medical_clinic,Vecino Airline Children's Clinic,hurricane,FALSE
29.7802962,-95.30986151,129,medical_clinic,Vecino's Denver Harbor Family Clinic,hurricane,FALSE
29.83065325,-95.70728386,130,medical_clinic,West Houston Community Health Center,hurricane,FALSE
29.66115488,-95.68651892,131,medical_clinic,West Oaks Urgent Care,hurricane,FALSE
29.7708553,-95.40922669,132,medical_clinic,Woman's Health,hurricane,FALSE
29.74715205,-95.36443141,133,medical_clinic,Women's Outpatient Center,hurricane,FALSE
29.74227012,-95.500856,134,primary_school,AL-HADI SCHOOL OF ACCELERATIVE LEARNING,hurricane,FALSE
29.6724513,-95.2768296,135,primary_school,ALCOTT EL,hurricane,FALSE
29.6876826,-95.60782669,136,primary_school,ALEXANDER EL,hurricane,FALSE
29.71315525,-95.590799,137,primary_school,ALIEF MONTESSORI COMMUNITY SCHOOL,hurricane,FALSE
29.60041047,-95.41742955,138,primary_school,ALMEDA EL,hurricane,FALSE
29.8681522,-95.43049303,139,primary_school,ANDERSON ACADEMY,hurricane,FALSE
29.64914955,-95.48797655,140,primary_school,ANDERSON EL,hurricane,TRUE
30.03691305,-95.33351567,141,primary_school,ANDERSON EL,hurricane,FALSE
29.9426878,-95.7175899,142,primary_school,ANDRE EL,hurricane,FALSE
29.7396152,-95.39320718,143,primary_school,ANNUNCIATION ORTHODOX SCHOOL,hurricane,FALSE
29.8114892,-95.4129218,144,primary_school,ARABIC IMMERSION MAGNET SCHOOL,hurricane,FALSE
29.79650812,-95.82177788,145,primary_school,ARISTOI CLASSICAL ACADEMY,hurricane,FALSE
29.6152692,-95.2507591,146,primary_school,ARLYNE & ALAN WEBER EL,hurricane,FALSE
29.594188,-95.115463,147,primary_school,ARMAND BAYOU EL,hurricane,FALSE
29.59515153,-95.11288663,148,primary_school,ARMAND BAYOU MONTESSORI,hurricane,FALSE
29.9377466,-95.3976872,149,primary_school,ARROW ACADEMY - HARVEST PREPARATORY ACADEMY,hurricane,FALSE
29.74023727,-95.55316249,150,primary_school,ASCENSION EPISCOPAL SCHOOL,hurricane,FALSE
29.751442,-95.577365,151,primary_school,ASKEW EL,hurricane,FALSE
29.871472,-95.387489,152,primary_school,ASSUMPTION CATHOLIC SCHOOL,hurricane,FALSE
29.77928287,-95.321203,153,primary_school,ATHERTON EL,hurricane,FALSE
29.60736686,-95.2405819,154,primary_school,ATKINSON EL,hurricane,FALSE
30.0010485,-95.734953,155,primary_school,AULT EL,hurricane,FALSE
29.67223254,-95.43684929,156,primary_school,AVONDALE HOUSE,hurricane,FALSE
29.7770024,-95.1385389,157,primary_school,B H HAMBLEN EL,hurricane,FALSE
29.67267373,-95.197903,158,primary_school,BAILEY EL,hurricane,FALSE
29.8530131,-95.52754791,159,primary_school,BANE EL,hurricane,FALSE
29.874882,-95.3698,160,primary_school,BARRICK EL,hurricane,FALSE
29.6724513,-95.2768296,161,primary_school,BASTIAN EL,hurricane,FALSE
29.7857086,-95.2460095,162,primary_school,BAY AREA MONTESSORI HOUSE,hurricane,TRUE
29.56653609,-95.02612893,163,primary_school,BAY EL,hurricane,FALSE
29.78199729,-94.96415709,164,primary_school,BAYTOWN CHRISTIAN ACADEMY,hurricane,FALSE
29.70103875,-95.34569938,165,primary_school,BEATRICE MAYES INSTITUTE CHARTER SCHOOL,hurricane,FALSE
29.64406562,-95.5497546,166,primary_school,BELL EL,hurricane,TRUE
29.716431,-95.491761,167,primary_school,BENAVIDEZ EL,hurricane,FALSE
29.827233,-95.48206,168,primary_school,BENBROOK EL,hurricane,TRUE
29.98299435,-95.4812351,169,primary_school,BENEKE EL,hurricane,FALSE
30.03491525,-95.48604868,170,primary_school,BENFER EL,hurricane,FALSE
30.090246,-95.590627,171,primary_school,BERNSHAUSEN EL,hurricane,FALSE
29.83763489,-95.3493295,172,primary_school,BERRY EL,hurricane,FALSE
29.6722326,-95.55201445,173,primary_school,BEST EL,hurricane,FALSE
29.8335759,-95.668459,174,primary_school,BIRKES EL,hurricane,FALSE
30.0243099,-95.6732211,175,primary_school,BLACK EL,hurricane,FALSE
29.9294756,-95.40438772,176,primary_school,BLACK EL,hurricane,FALSE
29.68787515,-95.5192132,177,primary_school,BONHAM EL,hurricane,TRUE
29.676315,-95.261398,178,primary_school,BONNER EL,hurricane,FALSE
29.7254898,-95.4221409,179,primary_school,BOONE EL,hurricane,FALSE
29.69547265,-95.48858125,180,primary_school,BRAEBURN EL,hurricane,FALSE
29.7492191,-95.49094179,181,primary_school,BRIARGROVE EL,hurricane,FALSE
29.725713,-95.513925,182,primary_school,BRIARMEADOW CHARTER,hurricane,FALSE
29.702507,-95.2776342,183,primary_school,BROOKLINE EL,hurricane,TRUE
29.603132,-95.10681085,184,primary_school,BROOKWOOD EL,hurricane,FALSE
29.79630207,-95.37789144,185,primary_school,BROWNING EL,hurricane,FALSE
29.8628708,-95.3342881,186,primary_school,BRUCE EL,hurricane,TRUE
29.81997825,-95.52410426,187,primary_school,BUFFALO CREEK EL,hurricane,FALSE
29.5608529,-95.11379729,188,primary_school,BUNKER HILL EL,hurricane,FALSE
29.8448741,-95.37306829,189,primary_school,BURBANK EL,hurricane,FALSE
29.74602645,-95.31857536,190,primary_school,BURNET EL,hurricane,FALSE
29.59030363,-95.20146667,191,primary_school,BURNETT ELEMENTARY,hurricane,TRUE
29.816541,-95.390843,192,primary_school,BURRUS EL,hurricane,FALSE
29.758189,-95.62546,193,primary_school,BUSH EL,hurricane,FALSE
29.7011362,-95.55368912,194,primary_school,BUSH EL,hurricane,FALSE
29.92355205,-95.40917971,195,primary_school,BUSSEY EL,hurricane,FALSE
29.73553686,-95.33363,196,primary_school,CAGE EL,hurricane,FALSE
29.9469167,-95.3579566,197,primary_school,CALVERT EL,hurricane,FALSE
29.87967405,-95.45598818,198,primary_school,CARAWAY EL,hurricane,FALSE
29.92880705,-95.48779386,199,primary_school,CARMICHAEL EL,hurricane,FALSE
29.6817073,-95.1451104,200,primary_school,CARPENTER EL,hurricane,FALSE
29.7268605,-95.310246,201,primary_school,CARRILLO EL,hurricane,FALSE
29.9182784,-95.46589782,202,primary_school,CARTER ACADEMY,hurricane,FALSE
29.8118474,-95.50355591,203,primary_school,CEDAR BROOK EL,hurricane,FALSE
29.81369384,-95.50091139,204,primary_school,CENTRAL CHRISTIAN ACADEMY,hurricane,FALSE
29.698105,-95.56645986,205,primary_school,CHAMBERS EL,hurricane,FALSE
29.70965525,-95.57627344,206,primary_school,CHANCELLOR EL,hurricane,FALSE
29.9211964,-95.6287531,207,primary_school,CHRIST THE REDEEMER,hurricane,FALSE
29.85064006,-95.4880589,208,primary_school,CHRISTIAN SCHOOL OF NORTHWEST HOUSTON,hurricane,FALSE
29.78138216,-95.19126606,209,primary_school,CIMARRON EL,hurricane,FALSE
29.83255535,-95.51649871,210,primary_school,CLAY ROAD BAPTIST SCHOOL,hurricane,FALSE
29.56652582,-95.12025748,211,primary_school,CLEAR LAKE CITY EL,hurricane,FALSE
29.7408042,-95.460888,212,primary_school,CLOUD OF LIGHT CHRISTIAN ACADEMY,hurricane,FALSE
29.77673349,-95.17598581,213,primary_school,CLOVERLEAF EL,hurricane,FALSE
29.633594,-95.344649,214,primary_school,CODWELL EL,hurricane,FALSE
29.7104093,-95.55487023,215,primary_school,COLLINS EL,hurricane,FALSE
29.94531485,-95.47157993,216,primary_school,CONLEY EL,hurricane,FALSE
29.82548135,-95.31841943,217,primary_school,COOK JR EL,hurricane,FALSE
29.85863006,-95.349809,218,primary_school,COOP EL,hurricane,FALSE
29.67707828,-95.29342447,219,primary_school,CORNELIUS EL,hurricane,FALSE
29.67516853,-95.44018073,220,primary_school,CORPUS CHRISTI CATHOLIC SCHOOL,hurricane,FALSE
29.9978436,-95.6541981,221,primary_school,COVENANT ACADEMY,hurricane,FALSE
30.14291775,-95.51346818,222,primary_school,CREEKSIDE FOREST EL,hurricane,FALSE
30.1407238,-95.5445616,223,primary_school,CREEKVIEW EL,hurricane,FALSE
29.70059558,-95.28583042,224,primary_school,CRESPO EL,hurricane,FALSE
29.77375304,-95.37949994,225,primary_school,CROCKETT EL,hurricane,FALSE
29.899556,-95.06359813,226,primary_school,CROSBY EL,hurricane,FALSE
30.1413048,-95.5080505,227,primary_school,CUNAE INTERNATIONAL SCHOOL,hurricane,FALSE
29.716673,-95.468194,228,primary_school,CUNNINGHAM EL,hurricane,FALSE
30.0206523,-95.3291055,229,primary_school,CYPRESSWOOD EL,hurricane,FALSE
29.93222595,-95.59907361,230,primary_school,DANISH EL,hurricane,FALSE
29.71449888,-95.2839556,231,primary_school,DAVILA EL,hurricane,FALSE
29.8611209,-95.3769666,232,primary_school,DE CHAUMES EL,hurricane,FALSE
29.73726141,-95.28968194,233,primary_school,DE ZAVALA EL,hurricane,FALSE
29.62563564,-95.28059807,234,primary_school,DEANDA EL,hurricane,FALSE
29.70771961,-95.16242454,235,primary_school,DEEPWATER EL,hurricane,FALSE
29.6979357,-95.1135622,236,primary_school,DEER PARK EL,hurricane,FALSE
30.0562351,-95.17281015,237,primary_school,DEERWOOD EL,hurricane,FALSE
29.96992065,-95.46500546,238,primary_school,DELORAS E THOMPSON EL,hurricane,FALSE
29.78581627,-95.32827648,239,primary_school,DOGAN EL,hurricane,FALSE
29.9649477,-95.4511683,240,primary_school,DONNA LEWIS EL,hurricane,FALSE
29.82094051,-95.17815811,241,primary_school,DR SHIRLEY J WILLIAMSON EL,hurricane,FALSE
29.777272,-95.48589455,242,primary_school,DUCHESNE ACADEMY OF THE SACRED HEART,hurricane,FALSE
29.83476377,-95.41615152,243,primary_school,DURHAM EL,hurricane,FALSE
29.867327,-95.391274,244,primary_school,DURKEE EL,hurricane,FALSE
29.9822231,-95.2765094,245,primary_school,EAGLE SPRINGS EL,hurricane,TRUE
29.935014,-95.353329,246,primary_school,ECKERT EL,hurricane,FALSE
29.81959535,-95.50847582,247,primary_school,EDGEWOOD EL,hurricane,FALSE
30.0384724,-95.52456543,248,primary_school,EHRHARDT EL,hurricane,FALSE
29.89214185,-95.49169499,249,primary_school,EILAND EL,hurricane,FALSE
29.7965844,-95.6449252,250,primary_school,ELIM CHRISTIAN SCHOOL,hurricane,TRUE
29.78092848,-95.30609395,251,primary_school,ELIOT EL,hurricane,FALSE
29.6974529,-95.2798129,252,primary_school,ELITE STEM PRI ACADEMY,hurricane,FALSE
29.6714681,-95.50113266,253,primary_school,ELROD EL,hurricane,FALSE
29.72716478,-95.53336635,254,primary_school,EMERSON EL,hurricane,FALSE
29.7254898,-95.4221409,255,primary_school,ENERGIZED FOR EXCELLENCE ACADEMY EL,hurricane,FALSE
29.9155624,-95.49789318,256,primary_school,EPPS ISLAND EL,hurricane,FALSE
29.88505775,-95.49686712,257,primary_school,ERMEL EL,hurricane,FALSE
29.8914,-95.3134,258,primary_school,ESCAMILLA EL,hurricane,FALSE
29.915051,-95.4206398,259,primary_school,ETERNITY CHRISTIAN SCHOOL,hurricane,TRUE
29.791939,-95.153261,260,primary_school,FAIRMONT EL,hurricane,FALSE
29.65620068,-95.185948,261,primary_school,FAITH CHRISTIAN ACADEMY,hurricane,FALSE
29.57544135,-95.11076682,262,primary_school,FALCON PASS EL,hurricane,FALSE
29.80074751,-95.3908509,263,primary_school,FIELD EL,hurricane,FALSE
29.7607858,-94.9824332,264,primary_school,FIRST BAPTIST ACADEMY,hurricane,FALSE
29.7817621,-95.45783189,265,primary_school,FIRST BAPTIST ACADEMY,hurricane,FALSE
29.6498995,-95.1549112,266,primary_school,FIRST BAPTIST CHRISTIAN ACADEMY,hurricane,FALSE
29.668296,-95.179645,267,primary_school,FISHER ELEMENTARY,hurricane,FALSE
29.627792,-95.4990194,268,primary_school,FONDREN EL,hurricane,FALSE
30.0425258,-95.2235672,269,primary_school,FOSTER EL,hurricane,FALSE
29.69172729,-95.36114979,270,primary_school,FOSTER EL,hurricane,FALSE
29.9688236,-95.5638485,271,primary_school,FRANCONE EL,hurricane,FALSE
29.739082,-95.29817,272,primary_school,FRANKLIN EL,hurricane,FALSE
29.5880046,-95.22681913,273,primary_school,FRAZIER EL,hurricane,FALSE
29.64592357,-95.23291757,274,primary_school,FREEMAN EL,hurricane,TRUE
30.12947,-95.50843272,275,primary_school,FRENCH EL,hurricane,FALSE
29.62088494,-95.33735484,276,primary_school,FROST EL,hurricane,FALSE
29.560331,-95.128489,277,primary_school,G H WHITCOMB EL,hurricane,FALSE
29.7335616,-95.2302123,278,primary_school,GALENA PARK EL,hurricane,FALSE
29.73310286,-95.29366614,279,primary_school,GALLEGOS EL,hurricane,FALSE
29.84888886,-95.34906894,280,primary_school,GARCIA EL,hurricane,FALSE
29.82268917,-95.41290993,281,primary_school,GARDEN OAKS MONTESSORI,hurricane,FALSE
29.63479457,-95.23069336,282,primary_school,GARFIELD EL,hurricane,FALSE
29.8834615,-95.1547833,283,primary_school,GARRETT EL,hurricane,FALSE
29.622653,-95.2853893,284,primary_school,GENESIS CHRISTIAN SCHOOL,hurricane,FALSE
29.62275,-95.201904,285,primary_school,GENOA EL,hurricane,FALSE
30.05626575,-95.42257244,286,primary_school,GINGER MCNABB EL,hurricane,FALSE
29.9029137,-95.55799894,287,primary_school,GLEASON EL,hurricane,FALSE
29.67047958,-95.16175523,288,primary_school,GOLDEN ACRES EL,hurricane,FALSE
29.68922185,-95.29448529,289,primary_school,GOLFCREST EL,hurricane,FALSE
29.8966734,-95.42371133,290,primary_school,GOODMAN EL,hurricane,FALSE
29.6016949,-95.2599342,291,primary_school,GOUDEAU ACCELERATED PREPARATORY ACADEMY,hurricane,TRUE
29.78875945,-94.96393664,292,primary_school,GRACE ACADEMY,hurricane,FALSE
29.57896806,-95.15213939,293,primary_school,GRACE CHRISTIAN ACADEMY,hurricane,FALSE
29.73995396,-95.55559714,294,primary_school,GRACE SCHOOL,hurricane,FALSE
29.9157849,-95.43173453,295,primary_school,GRAY EL,hurricane,FALSE
29.792211,-95.18867,296,primary_school,GREEN VALLEY EL,hurricane,FALSE
29.672341,-95.309845,297,primary_school,GREGG EL,hurricane,FALSE
29.75679,-95.385605,298,primary_school,GREGORY-LINCOLN ED CTR,hurricane,FALSE
29.619843,-95.454087,299,primary_school,GRISSOM EL,hurricane,FALSE
29.6391406,-95.52793182,300,primary_school,GROSS EL,hurricane,FALSE
29.85541711,-95.21345291,301,primary_school,H M CARROLL EL,hurricane,TRUE
29.782079,-95.6173502,302,primary_school,HAIRGROVE EL,hurricane,TRUE
29.9680341,-95.5565032,303,primary_school,HANCOCK EL,hurricane,FALSE
29.8658292,-95.4825354,304,primary_school,HARMONY SCHOOL OF ENDEAVOR-HOUSTON,hurricane,FALSE
29.6610592,-95.5578226,305,primary_school,HARMONY SCHOOL OF ENRICHMENT - HOUSTON,hurricane,FALSE
29.949285,-95.5469318,306,primary_school,HARMONY SCHOOL OF EXCELLENCE-HOUSTON,hurricane,FALSE
29.6610592,-95.5578226,307,primary_school,HARMONY SCHOOL OF EXPLORATION- HOUSTON,hurricane,FALSE
29.7273064,-95.4186082,308,primary_school,HARMONY SCHOOL OF FINE ARTS AND TECHNOLOGY-HOUSTON,hurricane,FALSE
29.67664324,-95.47726806,309,primary_school,HARMONY SCHOOL OF SCIENCE-HOUSTON,hurricane,TRUE
29.6610592,-95.5578226,310,primary_school,HARMONY SCIENCE ACADEMY - CYPRESS,hurricane,FALSE
29.86799215,-95.4541929,311,primary_school,HARRIS EL,hurricane,FALSE
29.76910935,-95.22138843,312,primary_school,HARRIS R P EL,hurricane,FALSE
29.69390589,-95.34309488,313,primary_school,HARTSFIELD EL,hurricane,FALSE
29.78546178,-95.39621645,314,primary_school,HARVARD EL,hurricane,FALSE
29.792054,-95.262272,315,primary_school,HARVEY S BROWN EL,hurricane,FALSE
30.00661,-95.5610531,316,primary_school,HAUDE EL,hurricane,FALSE
29.72282975,-95.61819901,317,primary_school,HEFLIN EL,hurricane,FALSE
29.80532735,-95.40644064,318,primary_school,HELMS EL,hurricane,FALSE
29.722256,-95.319688,319,primary_school,HENDERSON J EL,hurricane,FALSE
29.768632,-95.321212,320,primary_school,HENDERSON N EL,hurricane,FALSE
29.96325475,-95.45480499,321,primary_school,HERITAGE EL,hurricane,FALSE
29.68407877,-95.48734445,322,primary_school,HEROD EL,hurricane,FALSE
29.82229405,-95.36635907,323,primary_school,HERRERA EL,hurricane,FALSE
30.0736337,-95.18303088,324,primary_school,HIDDEN HOLLOW EL,hurricane,FALSE
29.8500203,-95.42090798,325,primary_school,HIGHLAND HTS EL,hurricane,FALSE
29.891057,-95.3057687,326,primary_school,HILL EL,hurricane,FALSE
29.83665885,-95.26959189,327,primary_school,HILLIARD EL,hurricane,TRUE
29.63585799,-95.43768116,328,primary_school,HOBBY EL,hurricane,FALSE
29.85735995,-95.49859038,329,primary_school,HOLBROOK EL,hurricane,FALSE
29.82645895,-95.50778166,330,primary_school,HOLLIBROOK EL,hurricane,FALSE
29.7638319,-95.4779925,331,primary_school,HOLY GHOST CATHOLIC SCHOOL,hurricane,FALSE
29.9333709,-95.2116771,332,primary_school,HOLY TRINITY EPISCOPAL SCHOOL OF GREATER HOUSTON,hurricane,FALSE
29.69323753,-95.45245257,333,primary_school,HORN EL,hurricane,TRUE
29.8658292,-95.4825354,334,primary_school,HORNE EL,hurricane,FALSE
29.8003778,-95.46988589,335,primary_school,HOUSMAN EL,hurricane,FALSE
29.7144329,-95.2901635,336,primary_school,HOUSTON GATEWAY ACADEMY,hurricane,FALSE
29.7163859,-95.2885241,337,primary_school,HOUSTON GATEWAY ACADEMY - CORAL CAMPUS,hurricane,FALSE
30.083475,-95.186697,338,primary_school,HOUSTON GATEWAY ACADEMY INC ELITE COLLEGE PREP,hurricane,FALSE
30.00820643,-95.56193526,339,primary_school,HOUSTON PEACE ACADEMY,hurricane,FALSE
29.75909311,-95.70441178,340,primary_school,HOUSTON QURAN ACADEMY,hurricane,TRUE
29.9797007,-95.43398949,341,primary_school,HOYLAND EL,hurricane,FALSE
29.961848,-95.26507,342,primary_school,HUMBLE CHRISTIAN SCHOOL,hurricane,FALSE
30.0116906,-95.27300007,343,primary_school,HUMBLE EL,hurricane,FALSE
30.06727165,-95.92391606,344,primary_school,I T HOLLEMAN EL,hurricane,FALSE
29.79059134,-95.5489964,345,primary_school,ILM ACADEMY,hurricane,FALSE
29.6270767,-95.290545,346,primary_school,ILTEXAS HOUSTON OREM EL,hurricane,FALSE
29.62620899,-95.24040164,347,primary_school,ILTEXAS HOUSTON WINDMILL LAKES EL,hurricane,FALSE
29.8016863,-95.8110591,348,primary_school,ILTEXAS KATY EL,hurricane,FALSE
29.7050343,-95.5443545,349,primary_school,ILTEXAS WESTPARK EL,hurricane,FALSE
29.79423276,-95.31860306,350,primary_school,ISAACS EL,hurricane,TRUE
29.764256,-95.29712,351,primary_school,JACINTO CITY EL,hurricane,FALSE
29.8314035,-95.799349,352,primary_school,JACK & SHARON RHOADS EL,hurricane,FALSE
29.96663515,-95.26243913,353,primary_school,JACK M FIELDS SR EL,hurricane,FALSE
29.792054,-95.262272,354,primary_school,JAMES B HAVARD EL,hurricane,FALSE
29.83015855,-95.37071709,355,primary_school,JANOWSKI EL,hurricane,FALSE
29.75421341,-95.60881534,356,primary_school,JAPANESE EDUCATIONAL INSTITUTE,hurricane,FALSE
29.8052656,-95.36970889,357,primary_school,JEFFERSON EL,hurricane,FALSE
29.65972447,-95.17491926,358,primary_school,JENSEN EL,hurricane,FALSE
29.627174,-95.250048,359,primary_school,JESSUP EL,hurricane,FALSE
29.9551762,-95.46366694,360,primary_school,JOAN LINK EL,hurricane,FALSE
29.58267361,-95.1375269,361,primary_school,JOHN F WARD EL,hurricane,FALSE
30.07018715,-95.40184494,362,primary_school,JOHN WINSHIP EL,hurricane,FALSE
30.0147004,-95.293267,363,primary_school,JONES EL,hurricane,FALSE
29.66909461,-95.12282694,364,primary_school,JP DABBS EL,hurricane,FALSE
29.9726072,-95.49379409,365,primary_school,KAISER EL,hurricane,FALSE
30.0751523,-95.4349573,366,primary_school,KARDIA CHRISTIAN ACADEMY,hurricane,FALSE
29.80495381,-95.3171367,367,primary_school,KASHMERE GARDENS EL,hurricane,TRUE
29.79976167,-95.81998978,368,primary_school,KATY ADVENTIST CHRISTIAN SCHOOL,hurricane,FALSE
29.682863,-95.334133,369,primary_school,KELSO EL,hurricane,FALSE
29.835633,-95.394418,370,primary_school,KENNEDY EL,hurricane,TRUE
29.6715646,-95.60214595,371,primary_school,KENNEDY EL,hurricane,FALSE
29.780744,-95.363686,372,primary_school,KETELSEN EL,hurricane,FALSE
29.96037603,-95.16917778,373,primary_school,KIDS R KIDS #35 TX LAKESHORE,hurricane,FALSE
30.07240388,-95.17114145,374,primary_school,KINGWOOD MONTESSORI SCHOOL,hurricane,FALSE
29.7050343,-95.5443545,375,primary_school,KIPP CONNECT HOUSTON PRI,hurricane,FALSE
29.727665,-95.321299,376,primary_school,KIPP EXPLORE ACADEMY,hurricane,FALSE
29.85240091,-95.26228081,377,primary_school,KIPP LEGACY PREPARATORY,hurricane,TRUE
29.7247691,-95.51136521,378,primary_school,KIPP SHARP PREP,hurricane,FALSE
29.641997,-95.36838,379,primary_school,KIPP ZENITH ACADEMY,hurricane,FALSE
29.8499712,-95.59529852,380,primary_school,KIRK EL,hurricane,FALSE
29.956678,-95.50617688,381,primary_school,KLENK EL,hurricane,FALSE
29.67481652,-95.46773702,382,primary_school,KOLTER EL,hurricane,FALSE
29.8856754,-95.4315091,383,primary_school,KREINHOP EL,hurricane,FALSE
29.6840449,-95.2636785,384,primary_school,KRUSE EL,hurricane,FALSE
29.9234095,-95.49313757,385,primary_school,KUJAWA EL,hurricane,FALSE
29.8595818,-95.2045196,386,primary_school,L E MONAHAN EL,hurricane,TRUE
29.98988945,-95.25267564,387,primary_school,LAKELAND EL,hurricane,FALSE
29.9978436,-95.6541981,388,primary_school,LAMKIN EL,hurricane,FALSE
29.68571325,-95.5616661,389,primary_school,LANDIS EL,hurricane,FALSE
29.622653,-95.2853893,390,primary_school,LANTRIP EL,hurricane,FALSE
29.6152692,-95.2507591,391,primary_school,LAURA WELCH BUSH EL,hurricane,FALSE
29.628144,-95.364892,392,primary_school,LAW EL,hurricane,FALSE
29.86428565,-95.6024899,393,primary_school,LEE EL,hurricane,FALSE
32.523909,-94.692547,394,primary_school,LEGACY ACADEMY - CHRISTIAN UNIVERSITY-MODEL SCHOOL,hurricane,FALSE
30.04020395,-95.43788804,395,primary_school,LEMM EL,hurricane,FALSE
29.66468295,-95.28314737,396,primary_school,LEWIS EL,hurricane,FALSE
29.8462891,-95.7142304,397,primary_school,LIEDER EL,hurricane,TRUE
29.69290925,-95.61623257,398,primary_school,LIESTMAN EL,hurricane,FALSE
29.7735754,-94.9776846,399,primary_school,LIGHTHOUSE BAPTIST ACADEMY,hurricane,FALSE
29.717342,-95.36581236,400,primary_school,LOCKHART EL,hurricane,FALSE
29.687102,-95.43215999,401,primary_school,LONGFELLOW EL,hurricane,FALSE
29.795412,-95.35764943,402,primary_school,LOOSCAN EL,hurricane,FALSE
29.8190211,-95.7514897,403,primary_school,LORAINE T GOLBOW EL,hurricane,FALSE
29.5480175,-95.1900495,404,primary_school,LORD OF LIFE LUTHERAN SCHOOL,hurricane,TRUE
29.79411111,-95.40857971,405,primary_school,LOVE EL,hurricane,FALSE
29.68267735,-95.46926098,406,primary_school,LOVETT EL,hurricane,TRUE
29.58616627,-95.18751229,407,primary_school,LUTHERAN SOUTH ACADEMY,hurricane,TRUE
29.6593802,-95.32863885,408,primary_school,MADING EL,hurricane,FALSE
29.682073,-95.181096,409,primary_school,MAE SMYTHE EL,hurricane,TRUE
30.090246,-95.590627,410,primary_school,MAHAFFEY EL,hurricane,FALSE
29.9347353,-95.39469368,411,primary_school,MARCELLA EL,hurricane,FALSE
29.532837,-95.120098,412,primary_school,MARGARET S MCWHIRTER EL,hurricane,FALSE
29.73828188,-95.51000545,413,primary_school,MARK WHITE EL,hurricane,FALSE
32.51361635,-94.36422933,414,primary_school,MARSHALL CHRISTIAN ACADEMY,hurricane,FALSE
29.89925642,-95.29785088,415,primary_school,MARSHALL EL,hurricane,FALSE
29.6925244,-95.58512803,416,primary_school,MARTIN EL,hurricane,FALSE
29.79056205,-95.35928132,417,primary_school,MARTINEZ C EL,hurricane,FALSE
29.927448,-95.5848781,418,primary_school,MATZKE EL,hurricane,FALSE
29.77974645,-95.64322546,419,primary_school,MAURICE L WOLFE EL,hurricane,FALSE
29.8056117,-95.7026887,420,primary_school,MAYDE CREEK EL,hurricane,FALSE
29.9295005,-95.49961115,421,primary_school,MCDOUGLE EL,hurricane,FALSE
29.69554353,-95.15649841,422,primary_school,MCMASTERS EL,hurricane,FALSE
29.7770024,-95.1385389,423,primary_school,MCMULLAN EL,hurricane,FALSE
29.684162,-95.5041517,424,primary_school,MCNAMARA EL,hurricane,FALSE
29.614179,-95.229486,425,primary_school,MEADOR ELEMENTARY,hurricane,FALSE
29.77086175,-95.59612151,426,primary_school,MEADOW WOOD EL,hurricane,FALSE
29.77024,-95.42556,427,primary_school,MEMORIAL EL,hurricane,FALSE
29.7356816,-95.6309349,428,primary_school,MEMORIAL LUTHERAN SCHOOL,hurricane,FALSE
29.8335759,-95.668459,429,primary_school,METCALF EL,hurricane,TRUE
30.115295,-95.55108029,430,primary_school,METZLER EL,hurricane,FALSE
30.005911,-95.43444968,431,primary_school,MEYER EL,hurricane,FALSE
30.04355295,-95.35924622,432,primary_school,MILDRED JENKINS EL,hurricane,FALSE
29.9952795,-95.6855384,433,primary_school,MILLSAP EL,hurricane,FALSE
29.660617,-95.514785,434,primary_school,MILNE EL,hurricane,FALSE
29.608252,-95.275505,435,primary_school,MITCHELL EL,hurricane,TRUE
29.688174,-95.492554,436,primary_school,MONTESSORI LEARNING INSTITUTE,hurricane,TRUE
29.69095505,-95.49471466,437,primary_school,MONTESSORI LEARNING INSTITUTE,hurricane,FALSE
29.62105228,-95.4371231,438,primary_school,MONTGOMERY EL,hurricane,FALSE
29.9967587,-95.5913729,439,primary_school,MOORE EL,hurricane,FALSE
29.87573221,-95.37421721,440,primary_school,MORENO EL,hurricane,FALSE
29.701365,-95.530494,441,primary_school,NEFF EL,hurricane,FALSE
29.832534,-95.442522,442,primary_school,NEW HEIGHTS CHRISTIAN ACADEMY,hurricane,FALSE
29.604624,-95.13506,443,primary_school,NORTH POINTE EL,hurricane,FALSE
30.09999145,-95.51983113,444,primary_school,NORTHAMPTON EL,hurricane,FALSE
29.7682851,-95.61179414,445,primary_school,NOTTINGHAM EL,hurricane,FALSE
29.82831228,-95.43470597,446,primary_school,OAK FOREST EL,hurricane,FALSE
29.79387909,-95.25289372,447,primary_school,OATES EL,hurricane,TRUE
29.9242384,-95.3825014,448,primary_school,ODOM EL,hurricane,FALSE
30.02589065,-95.36456274,449,primary_school,OGDEN EL,hurricane,FALSE
29.90490775,-95.32466065,450,primary_school,OLESON EL,hurricane,FALSE
29.897508,-95.461796,451,primary_school,ORANGE GROVE EL,hurricane,FALSE
29.875213,-95.418493,452,primary_school,OSBORNE EL,hurricane,FALSE
29.73898264,-95.23810207,453,primary_school,OUR LADY OF FATIMA CATHOLIC SCHOOL,hurricane,FALSE
29.7592228,-95.3450052,454,primary_school,OUR LADY OF GUADALUPE SCHOOL,hurricane,FALSE
29.8453055,-95.3999727,455,primary_school,OUR SAVIOR LUTHERAN SCHOOL,hurricane,TRUE
29.72873995,-95.59827079,456,primary_school,OUTLEY EL,hurricane,FALSE
29.9619668,-95.2480659,457,primary_school,PARK LAKES EL,hurricane,FALSE
29.68938615,-95.27218517,458,primary_school,PARK PLACE EL,hurricane,FALSE
29.66533133,-95.48216312,459,primary_school,PARKER EL,hurricane,FALSE
30.02595621,-95.40332256,460,primary_school,PARKER EL,hurricane,FALSE
29.68321382,-95.24270361,461,primary_school,PATTERSON EL,hurricane,FALSE
30.05042045,-95.39329874,462,primary_school,PEARL M HIRSCH EL,hurricane,FALSE
29.70617703,-95.33495438,463,primary_school,PECK EL,hurricane,FALSE
29.61857323,-95.42434138,464,primary_school,PETERSEN EL,hurricane,FALSE
29.72831627,-95.49217306,465,primary_school,PILGRIM ACADEMY,hurricane,FALSE
29.7638319,-95.4779925,466,primary_school,PILGRIM LUTHERAN SCHOOL,hurricane,FALSE
29.8071549,-95.53817344,467,primary_school,PINE SHADOWS EL,hurricane,FALSE
30.05391607,-95.20108709,468,primary_school,PINES MONTESSORI SCHOOL,hurricane,FALSE
29.72604967,-95.52098576,469,primary_school,PINEY POINT EL,hurricane,FALSE
29.76401052,-95.27267668,470,primary_school,PLEASANTVILLE EL,hurricane,TRUE
29.72768,-95.407028,471,primary_school,POE EL,hurricane,FALSE
29.6980078,-95.18302833,472,primary_school,POMEROY EL,hurricane,FALSE
29.9513652,-95.7193315,473,primary_school,POPE EL,hurricane,FALSE
29.759667,-95.283762,474,primary_school,PORT HOUSTON EL,hurricane,TRUE
29.6520498,-95.4521507,475,primary_school,PRESBYTERIAN SCHOOL,hurricane,FALSE
29.7683263,-95.30730944,476,primary_school,PUGH EL,hurricane,FALSE
29.762447,-95.220092,477,primary_school,PYBURN EL,hurricane,TRUE
29.9103958,-95.36094282,478,primary_school,RAYMOND EL,hurricane,FALSE
29.60607267,-95.4525632,479,primary_school,REAGAN K-8 EDUCATIONAL CTR,hurricane,FALSE
29.70451055,-95.18583202,480,primary_school,RED BLUFF EL,hurricane,FALSE
29.66623655,-95.45302086,481,primary_school,RED EL,hurricane,FALSE
29.91221395,-95.36108781,482,primary_school,REED ACADEMY,hurricane,FALSE
29.89389845,-95.52628724,483,primary_school,REED EL,hurricane,FALSE
29.77246024,-95.30232133,484,primary_school,RESURRECTION CATHOLIC SCHOOL,hurricane,FALSE
29.6509176,-95.3761343,485,primary_school,REYNOLDS EL,hurricane,FALSE
29.6979205,-95.42057868,486,primary_school,RICE SCH /LA ESCUELA RICE,hurricane,FALSE
29.71584754,-95.21507382,487,primary_school,RICHEY EL,hurricane,FALSE
29.8098426,-95.49386746,488,primary_school,RIDGECREST EL,hurricane,FALSE
29.7342681,-95.4128024,489,primary_school,RIVER OAKS ACADEMY,hurricane,FALSE
29.7273064,-95.4186082,490,primary_school,RIVER OAKS EL,hurricane,FALSE
29.611605,-95.355432,491,primary_school,RL FINNEY CHRISTIAN ACADEMEY,hurricane,TRUE
29.65548128,-95.45616825,492,primary_school,ROBERT M BEREN ACADEMY,hurricane,FALSE
29.712492,-95.412735,493,primary_school,ROBERTS EL,hurricane,FALSE
30.0242021,-95.81376196,494,primary_school,ROBERTS ROAD EL,hurricane,FALSE
29.78822758,-95.21379352,495,primary_school,ROBINSON EL,hurricane,TRUE
29.9719563,-95.68587378,496,primary_school,ROBISON EL,hurricane,FALSE
29.827313,-95.337783,497,primary_school,RODERICK R PAIGE EL,hurricane,FALSE
29.8183084,-95.37391798,498,primary_school,ROOSEVELT EL,hurricane,FALSE
30.0796754,-95.6646589,499,primary_school,ROSEHILL CHRISTIAN SCHOOL,hurricane,FALSE
30.0893624,-95.6416109,500,primary_school,ROSEHILL EL,hurricane,FALSE
29.8003612,-95.34176102,501,primary_school,ROSS EL,hurricane,FALSE
29.69398256,-95.24253849,502,primary_school,RUCKER EL,hurricane,FALSE
29.7741811,-95.57069048,503,primary_school,RUMMEL CREEK EL,hurricane,FALSE
29.7703635,-95.3512693,504,primary_school,SALYERS EL,hurricane,FALSE
29.771497,-95.153626,505,primary_school,SAM HOUSTON EL,hurricane,TRUE
29.702635,-95.283525,506,primary_school,SANCHEZ EL,hurricane,FALSE
29.87118103,-95.33733591,507,primary_school,SCARBOROUGH EL,hurricane,TRUE
29.7352843,-95.47279451,508,primary_school,SCHOOL AT ST GEORGE PLACE,hurricane,FALSE
29.72038812,-95.55367394,509,primary_school,SCHOOL OF SCIENCE AND TECHNOLOGY ADVANCEMENT,hurricane,FALSE
29.94017737,-95.39899144,510,primary_school,SCHOOL OF SCIENCE AND TECHNOLOGY EXCELLENCE,hurricane,FALSE
29.966164,-95.5547253,511,primary_school,SCHOOL OF SCIENCE AND TECHNOLOGY HOUSTON,hurricane,FALSE
29.79323859,-95.48501522,512,primary_school,SCHOOL OF THE WOODS,hurricane,FALSE
30.0941375,-95.54912418,513,primary_school,SCHULTZ EL,hurricane,FALSE
29.781979,-95.299035,514,primary_school,SCROGGINS EL,hurricane,FALSE
29.75595318,-95.4972539,515,primary_school,SECOND BAPTIST SCHOOL,hurricane,FALSE
29.6784598,-95.3061171,516,primary_school,SEGUIN EL,hurricane,FALSE
29.7194597,-95.48055285,517,primary_school,SER-NINOS CHARTER EL,hurricane,FALSE
29.7194597,-95.48055285,518,primary_school,SER-NINOS CHARTER EL II,hurricane,FALSE
30.0692701,-95.16528029,519,primary_school,SHADOW FOREST EL,hurricane,FALSE
29.79233935,-95.55465357,520,primary_school,SHADOW OAKS EL,hurricane,FALSE
29.73437439,-95.59819755,521,primary_school,SHADOWBRIAR EL,hurricane,FALSE
29.8488463,-95.2844125,522,primary_school,SHADYDALE EL,hurricane,TRUE
29.67667167,-95.43978333,523,primary_school,SHEARN EL,hurricane,TRUE
29.7794422,-95.35259036,524,primary_school,SHERMAN EL,hurricane,FALSE
29.776025,-95.47205421,525,primary_school,SHERWOOD EL,hurricane,FALSE
29.790441,-95.579651,526,primary_school,SHERWOOD FOREST MONTESSORI SCHOOL,hurricane,FALSE
29.79344529,-95.42789714,527,primary_school,SINCLAIR EL,hurricane,FALSE
29.74987086,-95.60596143,528,primary_school,SMALLER SCHOLARS MONTESSORI,hurricane,FALSE
29.83854,-95.46249931,529,primary_school,SMITH EL,hurricane,FALSE
30.0702612,-95.38071953,530,primary_school,SMITH EL,hurricane,FALSE
29.86261765,-95.47501463,531,primary_school,SMITH EL,hurricane,FALSE
29.66263675,-95.57813653,532,primary_school,SMITH EL,hurricane,FALSE
29.72509665,-95.54390141,533,primary_school,SNEED EL,hurricane,FALSE
29.68271868,-95.20907606,534,primary_school,SOUTH SHAVER EL,hurricane,FALSE
29.72094,-95.415066,535,primary_school,SOUTHAMPTON MONTESSORI SCHOOL,hurricane,FALSE
29.710009,-95.288491,536,primary_school,SOUTHMAYD EL,hurricane,FALSE
29.8181219,-95.4593146,537,primary_school,SOUTHWEST SCHOOLS MANGUM EL CAMPUS,hurricane,FALSE
29.65620068,-95.185948,538,primary_school,SPACE CITY PREPARATORY,hurricane,FALSE
29.9461633,-95.4332786,539,primary_school,SPENCE EL,hurricane,FALSE
30.072019,-95.423556,540,primary_school,SPRING BAPTIST ACADEMY,hurricane,FALSE
29.7760132,-95.60073648,541,primary_school,SPRING BRANCH ACADEMIC INSTITUTE,hurricane,FALSE
29.80134715,-95.51508753,542,primary_school,SPRING BRANCH EL,hurricane,FALSE
29.8207277,-95.53282278,543,primary_school,SPRING SHADOW EL,hurricane,FALSE
29.82962444,-95.46212221,544,primary_school,ST AMBROSE SCHOOL,hurricane,FALSE
29.74264727,-95.41212218,545,primary_school,ST ANNE CATHOLIC SCHOOL,hurricane,FALSE
30.0842241,-95.61163937,546,primary_school,ST ANNE CATHOLIC SCHOOL,hurricane,FALSE
29.678768,-95.237875,547,primary_school,ST AUGUSTINE CATHOLIC SCHOOL,hurricane,TRUE
29.67672895,-95.43224154,548,primary_school,ST CATHERINES MONTESSORI,hurricane,FALSE
29.77809782,-95.52991851,549,primary_school,ST CECILIA CATHOLIC SCHOOL,hurricane,FALSE
29.686825,-95.27558,550,primary_school,ST CHRISTOPHER CATHOLIC SCHOOL,hurricane,FALSE
29.5917501,-95.11902967,551,primary_school,ST CLARE OF ASSISI CATHOLIC SCHOOL,hurricane,FALSE
30.08275659,-95.45676899,552,primary_school,ST EDWARD CATHOLIC SCHOOL,hurricane,FALSE
29.7965844,-95.6449252,553,primary_school,ST ELIZABETH ANN SETON SCHOOL,hurricane,TRUE
29.699916,-95.527895,554,primary_school,ST FRANCIS DE SALES SCHOOL,hurricane,FALSE
29.82104929,-95.51026129,555,primary_school,ST JEROME CATHOLIC SCHOOL,hurricane,FALSE
29.72455368,-95.00081391,556,primary_school,ST JOSEPH CATHOLIC SCHOOL,hurricane,FALSE
29.79718072,-95.49332317,557,primary_school,ST MARK LUTHERAN SCHOOL,hurricane,FALSE
29.7050343,-95.5443545,558,primary_school,ST MARK'S EPISCOPAL SCHOOL,hurricane,FALSE
30.064667,-95.20989856,559,primary_school,ST MARTHA CATHOLIC SCHOOL,hurricane,FALSE
29.99201085,-95.2562031,560,primary_school,ST MARY MAGDALENE SCHOOL,hurricane,FALSE
29.71993347,-95.36871581,561,primary_school,ST MARY OF THE PURIFICATION MONTESSORI SCHOOL,hurricane,FALSE
29.70272167,-95.36142508,562,primary_school,ST PETER THE APOSTLE SCHOOL,hurricane,FALSE
29.819848,-95.415797,563,primary_school,ST ROSE OF LIMA CATHOLIC SCHOOL,hurricane,FALSE
29.737821,-95.404659,564,primary_school,ST STEPHEN'S EPISCOPAL SCHOOL,hurricane,FALSE
29.77361807,-95.42946924,565,primary_school,ST THERESA CATHOLIC SCHOOL,hurricane,FALSE
29.684874,-95.464096,566,primary_school,ST THOMAS EPISCOPAL SCHOOL,hurricane,FALSE
29.66929041,-95.49444923,567,primary_school,ST THOMAS MORE PARISH SCHOOL,hurricane,TRUE
29.5497181,-95.0894993,568,primary_school,ST THOMAS THE APOSTLE EPISCOPAL SCHOOL,hurricane,FALSE
29.70595637,-95.42754084,569,primary_school,ST VINCENT DE PAUL CATHOLIC SCHOOL,hurricane,TRUE
29.91503,-95.421666,570,primary_school,STEHLIK EL,hurricane,FALSE
30.08436308,-95.61164036,571,primary_school,STEP BY STEP CHRISTIAN SCHOOL,hurricane,FALSE
29.90057905,-95.34788563,572,primary_school,STEPHENS EL,hurricane,FALSE
29.826881,-95.44632856,573,primary_school,STEVENS EL,hurricane,FALSE
29.760274,-95.633431,574,primary_school,STJOHN PAUL II CATHOLIC SCHOOL,hurricane,FALSE
29.59542882,-95.21849047,575,primary_school,STUCHBERY EL,hurricane,TRUE
29.92801635,-95.17613119,576,primary_school,SUMMERWOOD EL,hurricane,FALSE
29.69823696,-95.50071258,577,primary_school,SUTTON EL,hurricane,FALSE
29.75011007,-95.48365019,578,primary_school,T H ROGERS SCHOOL,hurricane,FALSE
29.640574,-95.179197,579,primary_school,TEAGUE EL,hurricane,FALSE
29.8196437,-95.55024404,580,primary_school,TERRACE EL,hurricane,FALSE
29.8462891,-95.7142304,581,primary_school,TEXAS CHRISTIAN SCHOOL,hurricane,TRUE
29.7341038,-95.3829949,582,primary_school,TEXAS CONNECTIONS ACADEMY AT HOUSTON,hurricane,FALSE
29.9378668,-95.39694153,583,primary_school,TEXAS SERENITY ACADEMY - GANO,hurricane,FALSE
29.78726249,-95.45941435,584,primary_school,THE AWTY INTERNATIONAL SCHOOL,hurricane,FALSE
29.9414297,-95.5164144,585,primary_school,THE BANFF SCHOOL,hurricane,FALSE
29.791489,-95.579469,586,primary_school,THE BRANCH SCHOOL,hurricane,FALSE
29.74757279,-95.59658136,587,primary_school,THE BRIARWOOD SCHOOL,hurricane,FALSE
29.97072587,-95.70383915,588,primary_school,THE CONNECTION SCHOOL OF HOUSTON,hurricane,FALSE
30.02817206,-95.22897561,589,primary_school,THE COVENANT PREPARATORY SCHOOL,hurricane,FALSE
29.734356,-95.481504,590,primary_school,THE CROSSROADS SCHOOL,hurricane,FALSE
29.7665521,-95.45930526,591,primary_school,THE FAY SCHOOL,hurricane,FALSE
29.516197,-95.163584,592,primary_school,THE GALLOWAY SCHOOL,hurricane,TRUE
29.71309526,-95.49792913,593,primary_school,THE HARRIS SCHOOL,hurricane,FALSE
29.6202058,-95.4651759,594,primary_school,THE IMANI SCHOOL,hurricane,FALSE
29.730146,-95.388116,595,primary_school,THE JOY SCHOOL,hurricane,FALSE
29.7677483,-95.4090619,596,primary_school,THE KIPLING SCHOOL,hurricane,FALSE
29.8228263,-95.53679648,597,primary_school,THE MONARCH SCHOOL,hurricane,FALSE
30.0243099,-95.6732211,598,primary_school,THE OAKS ADVENTIST CHRISTIAN SCHOOL,hurricane,FALSE
29.713931,-95.455736,599,primary_school,THE POST OAK SCHOOL,hurricane,FALSE
30.00224265,-95.26249124,600,primary_school,THE RHODES SCHOOL - HUMBLE,hurricane,FALSE
29.792054,-95.262272,601,primary_school,THE RHODES SCHOOL - NORTHSHORE,hurricane,TRUE
29.861235,-95.473509,602,primary_school,THE RHODES SCHOOL - NW,hurricane,FALSE
29.79897781,-95.11339784,603,primary_school,THE RHODES SCHOOL - SOUTHEAST,hurricane,FALSE
29.657102,-95.4669007,604,primary_school,THE VARNETT SCHOOL SOUTHEAST,hurricane,FALSE
29.7472985,-95.61837641,605,primary_school,THE VILLAGE SCHOOL,hurricane,FALSE
29.70589327,-95.36322863,606,primary_school,THOMPSON EL,hurricane,FALSE
29.9222364,-95.40172515,607,primary_school,THOMPSON EL,hurricane,FALSE
29.7760132,-95.60073648,608,primary_school,THORNWOOD EL,hurricane,FALSE
29.792054,-95.262272,609,primary_school,TICE EL,hurricane,TRUE
29.740699,-95.310629,610,primary_school,TIJERINA EL,hurricane,FALSE
30.141778,-95.5125564,611,primary_school,TIMBER CREEK EL,hurricane,FALSE
29.8335759,-95.668459,612,primary_school,TIPPS EL,hurricane,FALSE
30.0994016,-95.6221243,613,primary_school,TOMBALL EL,hurricane,FALSE
29.661811,-95.508582,614,primary_school,TORAH DAY SCHOOL,hurricane,TRUE
29.6680471,-95.45700474,615,primary_school,TRAFTON ACADEMY,hurricane,FALSE
29.78881985,-95.37474297,616,primary_school,TRAVIS EL,hurricane,FALSE
29.8053379,-95.47981479,617,primary_school,TREASURE FOREST EL,hurricane,FALSE
32.5275319,-94.3748361,618,primary_school,TRINITY EPISCOPAL SCHOOL,hurricane,FALSE
29.64715401,-95.1674963,619,primary_school,TURNER EL,hurricane,FALSE
29.69885856,-95.43722159,620,primary_school,TWAIN EL,hurricane,TRUE
29.96210665,-95.47892169,621,primary_school,TWO DIMENSIONS PREPARATORY ACADEMY,hurricane,FALSE
29.7957234,-95.494371,622,primary_school,VALLEY OAKS EL,hurricane,FALSE
29.66442794,-95.52800465,623,primary_school,VALLEY WEST EL,hurricane,FALSE
29.70272725,-95.47255683,624,primary_school,VERITAS CHRISTIAN ACADEMY,hurricane,TRUE
29.7770024,-95.1385389,625,primary_school,VIOLA COBB EL,hurricane,FALSE
29.82228145,-95.46908978,626,primary_school,WAINWRIGHT EL,hurricane,FALSE
30.1281421,-95.9108751,627,primary_school,WALLER H S,hurricane,FALSE
29.52727994,-95.18194343,628,primary_school,WEDGEWOOD EL,hurricane,TRUE
29.991307,-95.739471,629,primary_school,WELLS EL,hurricane,FALSE
29.7232074,-95.55575895,630,primary_school,WESLEY ACADEMY,hurricane,FALSE
29.863006,-95.421087,631,primary_school,WESLEY EL,hurricane,FALSE
29.7123693,-95.403487,632,primary_school,WEST UNIVERSITY EL,hurricane,TRUE
29.7172678,-95.4999475,633,primary_school,WESTBURY CHRISTIAN SCHOOL,hurricane,FALSE
29.7968509,-95.53604678,634,primary_school,WESTERN ACADEMY,hurricane,FALSE
29.75581059,-95.62867717,635,primary_school,WESTSIDE MONTESSORI SCHOOL,hurricane,FALSE
29.81379019,-95.56692596,636,primary_school,WESTVIEW SCHOOL,hurricane,FALSE
29.8103157,-95.55764544,637,primary_school,WESTWOOD EL,hurricane,FALSE
29.75410885,-95.39069959,638,primary_school,WHARTON K-8 DUAL LANGUAGE ACADEMY,hurricane,FALSE
29.68208455,-95.37510901,639,primary_school,WHIDBY EL,hurricane,FALSE
29.696547,-95.541998,640,primary_school,WHITE E EL,hurricane,TRUE
29.78229485,-95.58050975,641,primary_school,WILCHESTER EL,hurricane,FALSE
29.92186045,-95.56130546,642,primary_school,WILLBERN EL,hurricane,FALSE
29.68780218,-95.22800198,643,primary_school,WILLIAMS ELEMENTARY,hurricane,FALSE
29.9178098,-95.46807718,644,primary_school,WILSON EL,hurricane,FALSE
29.8462891,-95.7142304,645,primary_school,WILSON EL,hurricane,TRUE
29.747743,-95.398677,646,primary_school,WILSON MONTESSORI,hurricane,FALSE
29.61691943,-95.46980509,647,primary_school,WINDSOR VILLAGE EL,hurricane,FALSE
29.8038074,-94.9337293,648,primary_school,WOODLAND ACRES EL,hurricane,FALSE
30.0586604,-95.21346399,649,primary_school,WOODLAND HILLS EL,hurricane,FALSE
29.64306364,-95.3653917,650,primary_school,WOODSON SCHOOL,hurricane,FALSE
29.7903265,-95.53295064,651,primary_school,WOODVIEW EL,hurricane,FALSE
29.88557215,-95.34100913,652,primary_school,WORSHAM EL,hurricane,FALSE
30.0567316,-95.5765044,653,primary_school,YEAGER EL,hurricane,FALSE
29.738111,-95.356508,654,primary_school,YELLOWSTONE ACADEMY,hurricane,FALSE
29.6553829,-95.51098984,655,primary_school,YESHIVA TORAT EMET,hurricane,FALSE
29.770098,-95.592952,656,primary_school,YORKSHIRE ACADEMY,hurricane,FALSE
29.64803698,-95.19843914,657,primary_school,YOUNG EL,hurricane,FALSE
29.7545997,-95.37122956,658,primary_school,YOUNG SCHOLARS ACADEMY FOR EXCELLENCE,hurricane,FALSE
29.80249905,-95.8142688,659,primary_school,ZELMA HUTSELL EL,hurricane,FALSE
30.08635225,-95.48735051,660,primary_school,ZWINK EL,hurricane,FALSE
29.71821311,-95.29570222,661,supermarket,99 Cent Only Store,hurricane,FALSE
29.58862595,-95.59953105,662,supermarket,99 Ranch Market,hurricane,FALSE
29.95687206,-95.26562329,663,supermarket,A-1 Supermarket,hurricane,TRUE
29.66408704,-95.74227901,664,supermarket,ALDI,hurricane,FALSE
29.85357639,-95.68245741,665,supermarket,African Market,hurricane,FALSE
29.832261,-95.70463351,666,supermarket,Al-Ahad Meat and Grocers,hurricane,FALSE
30.0710937,-95.4519572,667,supermarket,Aldi,hurricane,FALSE
29.82295309,-95.40976908,668,supermarket,Aldi,hurricane,FALSE
29.90455038,-95.68464661,669,supermarket,Aldi,hurricane,FALSE
29.99367648,-95.48590484,670,supermarket,Aldi,hurricane,FALSE
29.64647663,-95.58269925,671,supermarket,Aldi,hurricane,FALSE
29.71803768,-95.64299241,672,supermarket,Aldi,hurricane,FALSE
29.91609618,-95.48579146,673,supermarket,Aldi,hurricane,FALSE
29.99687685,-95.17378374,674,supermarket,Aldi,hurricane,FALSE
29.85795272,-95.7182512,675,supermarket,Aldi,hurricane,FALSE
29.66367961,-95.09753837,676,supermarket,Aldi,hurricane,FALSE
29.555053,-95.39882267,677,supermarket,Aldi,hurricane,FALSE
29.70136178,-95.36334554,678,supermarket,Aldi,hurricane,FALSE
29.68948172,-95.50154167,679,supermarket,Aldi,hurricane,FALSE
29.8616365,-95.64655274,680,supermarket,Aldi,hurricane,FALSE
29.54304225,-95.54761556,681,supermarket,Aldi Market,hurricane,FALSE
29.78348788,-94.9793511,682,supermarket,Aldi Nord,hurricane,FALSE
29.56731703,-95.05940248,683,supermarket,Arlan's Market,hurricane,FALSE
30.04620646,-94.88468032,684,supermarket,Brookshire Brothers,hurricane,FALSE
29.80033014,-95.80985046,685,supermarket,Brookshire Brothers,hurricane,FALSE
29.74103588,-95.44405451,686,supermarket,Central Market - H-E-B,hurricane,FALSE
29.88098489,-95.70027131,687,supermarket,Cà Mau Food Market,hurricane,FALSE
29.95980987,-95.47879166,688,supermarket,Desi Grocers,hurricane,FALSE
29.48590325,-94.94566072,689,supermarket,Dollar Store,hurricane,FALSE
29.835617,-95.64839002,690,supermarket,Dong Khanh Market,hurricane,TRUE
29.69883082,-95.48347597,691,supermarket,El Ahorra Supermarket,hurricane,FALSE
29.8225864,-95.52323615,692,supermarket,El Ahorro,hurricane,FALSE
29.73448878,-95.30431917,693,supermarket,El Ahorro Supermarket,hurricane,FALSE
29.86064058,-95.38570269,694,supermarket,El Ahorro Supermarket,hurricane,FALSE
29.82068557,-95.46541154,695,supermarket,El Rancho,hurricane,FALSE
29.67197981,-95.28816012,696,supermarket,Fiesta,hurricane,FALSE
29.78145337,-95.35921213,697,supermarket,Fiesta,hurricane,FALSE
29.70645012,-95.49134096,698,supermarket,Fiesta,hurricane,FALSE
29.69334282,-95.32844101,699,supermarket,Fiesta,hurricane,FALSE
29.67232883,-95.53003096,700,supermarket,Fiesta,hurricane,TRUE
29.79736588,-95.36698062,701,supermarket,Fiesta,hurricane,FALSE
29.69022052,-95.41511129,702,supermarket,Fiesta,hurricane,FALSE
29.87816439,-95.7220192,703,supermarket,Fiesta,hurricane,FALSE
29.56127114,-95.7897795,704,supermarket,Fiesta,hurricane,FALSE
29.91615477,-95.40438968,705,supermarket,Fiesta,hurricane,FALSE
29.83670059,-95.38527359,706,supermarket,Fiesta,hurricane,FALSE
29.8634908,-95.33473902,707,supermarket,Fiesta,hurricane,TRUE
29.70320408,-95.63885997,708,supermarket,Fiesta,hurricane,FALSE
29.73076304,-95.31082924,709,supermarket,Fiesta Mart,hurricane,FALSE
29.78096801,-95.7490888,710,supermarket,Fiesta Mart,hurricane,FALSE
29.8368606,-95.64466832,711,supermarket,Fiesta Mart,hurricane,TRUE
29.59739134,-95.52534446,712,supermarket,Fiesta Mart Supermarket,hurricane,FALSE
30.04869124,-95.38834718,713,supermarket,Food Fair Supermarket,hurricane,TRUE
29.76039703,-94.96546555,714,supermarket,Food Town,hurricane,FALSE
29.67401783,-95.50765897,715,supermarket,Food Town,hurricane,FALSE
29.87798179,-95.64882382,716,supermarket,Food Town,hurricane,FALSE
29.68108451,-95.12463156,717,supermarket,Food Town,hurricane,FALSE
29.56114234,-95.33012027,718,supermarket,Food Town,hurricane,FALSE
29.87117378,-95.40611498,719,supermarket,Food Town,hurricane,FALSE
29.86952506,-95.38341496,720,supermarket,Food Town,hurricane,FALSE
29.94042699,-95.46129058,721,supermarket,Food Town,hurricane,FALSE
29.77162938,-94.99693196,722,supermarket,Food Town,hurricane,FALSE
29.56023094,-95.14011346,723,supermarket,Food Town,hurricane,FALSE
30.15594442,-95.21292732,724,supermarket,Food Town,hurricane,FALSE
29.66235943,-95.46488201,725,supermarket,Foodarama,hurricane,FALSE
29.68754882,-95.49132797,726,supermarket,Foodarama,hurricane,FALSE
29.80214836,-95.43130401,727,supermarket,Foodarama,hurricane,FALSE
29.59457444,-95.46632458,728,supermarket,Foodarama,hurricane,FALSE
29.58241974,-95.52671246,729,supermarket,Foodarama,hurricane,FALSE
29.8020864,-95.41590268,730,supermarket,Fortune One Foods,hurricane,TRUE
30.0530967,-95.18359086,731,supermarket,H-E-B,hurricane,TRUE
29.6063047,-95.12693245,732,supermarket,H-E-B,hurricane,FALSE
29.55819757,-95.26497146,733,supermarket,H-E-B,hurricane,FALSE
30.0685933,-95.2517487,734,supermarket,H-E-B,hurricane,FALSE
29.82750787,-94.85000867,735,supermarket,H-E-B,hurricane,FALSE
29.65995292,-95.71340363,736,supermarket,H-E-B,hurricane,FALSE
29.84732947,-95.64765479,737,supermarket,H-E-B,hurricane,FALSE
30.07181435,-95.50188141,738,supermarket,H-E-B,hurricane,FALSE
29.74795113,-95.48515179,739,supermarket,H-E-B,hurricane,FALSE
29.92709404,-95.72522981,740,supermarket,H-E-B,hurricane,FALSE
30.10770586,-95.38752642,741,supermarket,H-E-B,hurricane,FALSE
29.5517041,-95.74755845,742,supermarket,H-E-B,hurricane,FALSE
29.71980193,-95.84840027,743,supermarket,H-E-B,hurricane,FALSE
29.79552008,-94.97737067,744,supermarket,H-E-B,hurricane,FALSE
29.60794821,-95.64593173,745,supermarket,H-E-B,hurricane,FALSE
30.02238572,-95.52738333,746,supermarket,H-E-B,hurricane,FALSE
30.00296193,-95.63905578,747,supermarket,H-E-B,hurricane,FALSE
29.69572561,-95.81599539,748,supermarket,H-E-B,hurricane,FALSE
29.71394173,-95.37683901,749,supermarket,H-E-B,hurricane,TRUE
29.50564798,-95.03876795,750,supermarket,H-E-B,hurricane,FALSE
30.053754,-95.57694694,751,supermarket,H-E-B,hurricane,FALSE
29.66701289,-95.0967667,752,supermarket,H-E-B,hurricane,FALSE
29.68845537,-95.46411005,753,supermarket,H-E-B,hurricane,TRUE
29.91100056,-95.58604453,754,supermarket,H-E-B,hurricane,FALSE
29.55470113,-95.11780381,755,supermarket,H-E-B,hurricane,FALSE
29.99534547,-95.57611086,756,supermarket,H-E-B,hurricane,FALSE
29.53677281,-95.53649349,757,supermarket,H-E-B,hurricane,FALSE
29.72706739,-95.42716958,758,supermarket,H-E-B,hurricane,FALSE
29.56500853,-95.68525974,759,supermarket,H-E-B,hurricane,FALSE
29.78928251,-95.71673471,760,supermarket,H-E-B,hurricane,FALSE
30.1276013,-95.44575325,761,supermarket,H-E-B,hurricane,FALSE
30.00042265,-95.1644674,762,supermarket,H-E-B,hurricane,FALSE
29.73811673,-95.40277033,763,supermarket,H-E-B,hurricane,FALSE
29.92303615,-95.19699649,764,supermarket,H-E-B,hurricane,FALSE
29.78764579,-95.53247981,765,supermarket,H-E-B,hurricane,FALSE
29.80735609,-95.40885518,766,supermarket,H-E-B,hurricane,FALSE
29.82140439,-95.54737852,767,supermarket,H-E-B,hurricane,FALSE
30.1636269,-95.46675787,768,supermarket,H-E-B,hurricane,FALSE
29.7687967,-95.39666319,769,supermarket,H-E-B,hurricane,FALSE
29.73513762,-95.58725467,770,supermarket,H-E-B,hurricane,FALSE
29.69846755,-95.29488859,771,supermarket,H-E-B,hurricane,FALSE
29.50543396,-95.19091182,772,supermarket,H-E-B,hurricane,TRUE
29.75697642,-95.7504471,773,supermarket,H-E-B,hurricane,FALSE
29.70577079,-95.64163361,774,supermarket,H-E-B,hurricane,FALSE
29.60175166,-95.25011833,775,supermarket,H-E-B,hurricane,FALSE
30.0886288,-95.62924031,776,supermarket,H-E-B,hurricane,FALSE
30.06868311,-95.44993237,777,supermarket,H-E-B,hurricane,FALSE
29.55927245,-95.39034471,778,supermarket,H-E-B,hurricane,FALSE
29.71277477,-95.77588939,779,supermarket,H-E-B,hurricane,FALSE
29.70737348,-95.46979406,780,supermarket,H-E-B,hurricane,FALSE
29.57855867,-95.582644,781,supermarket,H-E-B,hurricane,FALSE
29.64864763,-95.14457258,782,supermarket,H-E-B,hurricane,FALSE
29.95751334,-95.67335327,783,supermarket,H-E-B,hurricane,FALSE
30.1444297,-95.54947841,784,supermarket,H-E-B,hurricane,FALSE
29.69106741,-95.55981512,785,supermarket,H-E-B,hurricane,FALSE
29.77335925,-95.82245322,786,supermarket,H-E-B,hurricane,FALSE
29.99250045,-95.74444271,787,supermarket,H-E-B,hurricane,FALSE
29.75049082,-95.79829789,788,supermarket,Harvest Natural Market,hurricane,FALSE
29.70136072,-95.57739105,789,supermarket,Hong Kong Food Market,hurricane,FALSE
29.58633923,-95.21336844,790,supermarket,Hong Kong Market,hurricane,FALSE
30.16122282,-95.45882776,791,supermarket,Hubbell & Hudson Market,hurricane,FALSE
29.76045825,-94.97516884,792,supermarket,Joe V's,hurricane,FALSE
29.83162259,-95.48371016,793,supermarket,Joe V's,hurricane,FALSE
29.60788254,-95.47756328,794,supermarket,Joe V's Smart Shop,hurricane,FALSE
29.70584642,-95.54687965,795,supermarket,Jusgo,hurricane,FALSE
29.58898595,-95.60030125,796,supermarket,Jusgo Supermarket,hurricane,FALSE
29.75054949,-95.35523926,797,supermarket,Kim Hung Market,hurricane,FALSE
29.74298251,-95.39186129,798,supermarket,Kroger,hurricane,FALSE
29.73668722,-95.8100217,799,supermarket,Kroger,hurricane,FALSE
30.11459284,-95.55270293,800,supermarket,Kroger,hurricane,FALSE
29.77113681,-95.59942964,801,supermarket,Kroger,hurricane,FALSE
29.55858784,-95.12476797,802,supermarket,Kroger,hurricane,FALSE
29.55168945,-95.58429845,803,supermarket,Kroger,hurricane,FALSE
29.56054544,-95.34893252,804,supermarket,Kroger,hurricane,FALSE
29.7968189,-95.48643687,805,supermarket,Kroger,hurricane,FALSE
30.13327697,-95.23652841,806,supermarket,Kroger,hurricane,FALSE
29.80456749,-95.40045149,807,supermarket,Kroger,hurricane,FALSE
29.57797063,-95.12056427,808,supermarket,Kroger,hurricane,FALSE
29.7896267,-95.41119948,809,supermarket,Kroger,hurricane,FALSE
30.06667363,-95.18712453,810,supermarket,Kroger,hurricane,FALSE
30.09204294,-95.63426131,811,supermarket,Kroger,hurricane,FALSE
30.11851883,-95.38166088,812,supermarket,Kroger,hurricane,FALSE
30.08556181,-95.44845711,813,supermarket,Kroger,hurricane,FALSE
29.81264551,-95.77018249,814,supermarket,Kroger,hurricane,FALSE
29.97897272,-95.21505908,815,supermarket,Kroger,hurricane,FALSE
29.65356261,-95.03218669,816,supermarket,Kroger,hurricane,FALSE
29.79116571,-95.72130701,817,supermarket,Kroger,hurricane,FALSE
29.56362615,-95.56549386,818,supermarket,Kroger,hurricane,FALSE
30.12402683,-95.40737577,819,supermarket,Kroger,hurricane,FALSE
30.02183915,-95.43405757,820,supermarket,Kroger,hurricane,FALSE
29.91900534,-95.68958821,821,supermarket,Kroger,hurricane,FALSE
29.66387947,-95.73826161,822,supermarket,Kroger,hurricane,FALSE
29.73556838,-95.75377779,823,supermarket,Kroger,hurricane,FALSE
29.86006989,-95.72169786,824,supermarket,Kroger,hurricane,FALSE
29.99405548,-95.6215973,825,supermarket,Kroger,hurricane,FALSE
29.66928085,-95.46395262,826,supermarket,Kroger,hurricane,FALSE
29.73973815,-95.34043286,827,supermarket,Kroger,hurricane,FALSE
29.81405653,-95.54400081,828,supermarket,Kroger,hurricane,FALSE
29.82884063,-95.43202999,829,supermarket,Kroger,hurricane,FALSE
29.97681087,-95.49149338,830,supermarket,Kroger,hurricane,FALSE
30.04040527,-95.48619854,831,supermarket,Kroger,hurricane,FALSE
30.07583305,-95.51710919,832,supermarket,Kroger,hurricane,FALSE
30.00294948,-95.53159434,833,supermarket,Kroger,hurricane,TRUE
29.5853457,-95.63328767,834,supermarket,Kroger,hurricane,FALSE
29.90407996,-95.55563679,835,supermarket,Kroger,hurricane,FALSE
29.91229097,-95.47785439,836,supermarket,Kroger,hurricane,FALSE
30.03271307,-95.55276898,837,supermarket,Kroger,hurricane,FALSE
29.64796217,-95.64942844,838,supermarket,Kroger,hurricane,FALSE
29.98332352,-95.5659153,839,supermarket,Kroger,hurricane,TRUE
29.90792773,-95.58356487,840,supermarket,Kroger,hurricane,FALSE
29.95172456,-95.58238391,841,supermarket,Kroger,hurricane,FALSE
29.67826435,-95.64101469,842,supermarket,Kroger,hurricane,FALSE
29.75747934,-95.62744098,843,supermarket,Kroger,hurricane,FALSE
29.86539238,-95.60674044,844,supermarket,Kroger,hurricane,FALSE
29.92403174,-95.60445757,845,supermarket,Kroger,hurricane,FALSE
29.90252892,-95.63172929,846,supermarket,Kroger,hurricane,FALSE
29.88143736,-95.68557284,847,supermarket,Kroger,hurricane,FALSE
29.97091084,-95.69016562,848,supermarket,Kroger,hurricane,FALSE
29.7580622,-95.77842021,849,supermarket,Kroger,hurricane,FALSE
29.75242815,-95.60529097,850,supermarket,Kroger,hurricane,FALSE
29.87026875,-95.64370875,851,supermarket,Kroger,hurricane,FALSE
29.58306697,-95.38986298,852,supermarket,Kroger,hurricane,TRUE
29.75410354,-95.40551098,853,supermarket,Kroger,hurricane,FALSE
29.70865507,-95.6859081,854,supermarket,Kroger,hurricane,FALSE
29.73638145,-95.54530187,855,supermarket,Kroger,hurricane,FALSE
29.74825128,-95.50009192,856,supermarket,Kroger,hurricane,FALSE
29.77329477,-95.38983412,857,supermarket,Kroger,hurricane,FALSE
30.00107524,-95.16091572,858,supermarket,Kroger,hurricane,FALSE
29.92468342,-95.20387488,859,supermarket,Kroger,hurricane,FALSE
29.70058625,-95.81150671,860,supermarket,Kroger,hurricane,FALSE
29.7272562,-95.43088893,861,supermarket,Kroger,hurricane,FALSE
30.07204608,-95.24296147,862,supermarket,Kroger,hurricane,FALSE
29.6031611,-95.21490856,863,supermarket,Kroger,hurricane,FALSE
29.53562111,-95.20585901,864,supermarket,Kroger,hurricane,FALSE
29.54151352,-95.75073404,865,supermarket,Kroger Marketplace,hurricane,FALSE
29.7628682,-95.84391945,866,supermarket,Kroger Marketplace,hurricane,FALSE
29.86672039,-95.68399131,867,supermarket,La Michoacana Meat Market,hurricane,FALSE
29.88266618,-95.39165289,868,supermarket,La Michoacana Meat Market,hurricane,TRUE
29.87846799,-95.66712482,869,supermarket,La Pasadita,hurricane,FALSE
29.7842404,-95.20345665,870,supermarket,Michoacana Market,hurricane,FALSE
29.7911931,-95.52097456,871,supermarket,Nourish Market,hurricane,FALSE
29.85822819,-95.42118279,872,supermarket,O-Lan O Supermarket,hurricane,FALSE
29.7543203,-95.3616241,873,supermarket,Phoenicia Speciality Foods,hurricane,FALSE
30.02992495,-95.48000836,874,supermarket,Placemark,hurricane,FALSE
29.8495211,-95.68280441,875,supermarket,Placemark,hurricane,FALSE
29.73408382,-95.62616393,876,supermarket,Placemark,hurricane,FALSE
30.07100939,-95.50793535,877,supermarket,Placemark,hurricane,FALSE
29.77116922,-95.59920071,878,supermarket,Placemark,hurricane,FALSE
29.62163974,-95.55782635,879,supermarket,R & R Produce,hurricane,FALSE
29.56585124,-95.14491806,880,supermarket,Raj Grocers,hurricane,FALSE
29.97965676,-95.50886388,881,supermarket,Randalls,hurricane,FALSE
29.77942851,-95.71700201,882,supermarket,Randalls,hurricane,FALSE
30.14039731,-95.47216653,883,supermarket,Randalls,hurricane,FALSE
29.74879734,-95.46575223,884,supermarket,Randalls,hurricane,FALSE
29.77180633,-95.60717577,885,supermarket,Randalls 1011,hurricane,FALSE
29.65645277,-95.58402128,886,supermarket,Randalls 1022,hurricane,FALSE
29.67278639,-95.45880925,887,supermarket,Randalls 1041,hurricane,TRUE
29.70472997,-95.42584965,888,supermarket,Randalls 1061,hurricane,FALSE
29.77384013,-95.55932788,889,supermarket,Randalls 1066,hurricane,FALSE
29.73770376,-95.57011096,890,supermarket,Randalls 1247,hurricane,FALSE
29.81355567,-95.71889591,891,supermarket,Randalls 1772,hurricane,FALSE
29.74895654,-95.37442988,892,supermarket,Randalls 1773,hurricane,FALSE
29.95598523,-95.67073289,893,supermarket,Randalls 1857,hurricane,FALSE
29.5543953,-95.37943027,894,supermarket,Randalls 1858,hurricane,FALSE
29.53865544,-95.06312625,895,supermarket,Randalls 2051,hurricane,FALSE
29.62202247,-95.74224127,896,supermarket,Randalls 2670,hurricane,FALSE
29.83278915,-95.68370889,897,supermarket,Randalls 2672,hurricane,FALSE
29.73872675,-95.53716716,898,supermarket,Randalls 2961,hurricane,FALSE
29.70624553,-95.46976199,899,supermarket,Randalls 3064,hurricane,FALSE
29.75989302,-95.74982931,900,supermarket,Randalls 3070,hurricane,FALSE
29.72173052,-95.44245066,901,supermarket,Randalls 4033,hurricane,FALSE
29.59303861,-95.14064172,902,supermarket,Randalls 4062,hurricane,FALSE
29.74659731,-95.48637467,903,supermarket,Rice Epicurean Market,hurricane,FALSE
29.76702441,-95.55149605,904,supermarket,Rice Epicurean Market,hurricane,FALSE
29.58262032,-95.76339336,905,supermarket,Richmond Foods,hurricane,FALSE
29.58407514,-95.75465749,906,supermarket,Riveredge Grocery,hurricane,FALSE
29.8105358,-95.52564675,907,supermarket,Seller's Brothers,hurricane,FALSE
29.71170801,-95.31283921,908,supermarket,Sellers Bros Food Market,hurricane,FALSE
29.86578969,-95.67027442,909,supermarket,Shapla Grocers & Halal Meat,hurricane,FALSE
29.8019634,-95.43050868,910,supermarket,Speedy Mart,hurricane,FALSE
29.7745931,-95.40023729,911,supermarket,Sprouts Farmers Market,hurricane,FALSE
29.88054357,-95.6469076,912,supermarket,Sprouts Farmers Market,hurricane,FALSE
30.01197166,-95.58754413,913,supermarket,Sprouts Farmers Market,hurricane,FALSE
29.55807297,-95.34820523,914,supermarket,Sprouts Farmers Market,hurricane,FALSE
29.79246645,-95.52075421,915,supermarket,Super H Mart,hurricane,FALSE
29.8111834,-95.68787751,916,supermarket,Supermercado Gigante,hurricane,FALSE
29.69284323,-95.41913146,917,supermarket,Target,hurricane,FALSE
29.65806619,-95.70980954,918,supermarket,Target,hurricane,FALSE
29.78214991,-95.71604701,919,supermarket,Target,hurricane,FALSE
29.8316677,-95.70856291,920,supermarket,Texas Food Supermarket,hurricane,FALSE
29.8210826,-95.52493715,921,supermarket,Thang Hung Food Market,hurricane,FALSE
30.04546953,-94.89232891,922,supermarket,Thrif-Tee Food Center,hurricane,FALSE
29.73919521,-95.41116229,923,supermarket,Trader Joe's,hurricane,FALSE
29.75274141,-95.50162086,924,supermarket,Trader Joe's,hurricane,FALSE
29.74041302,-95.77534859,925,supermarket,Trader Joe's,hurricane,FALSE
30.17637642,-95.53581464,926,supermarket,Trader Joe's,hurricane,FALSE
29.73537338,-95.58239013,927,supermarket,Trader Joe's,hurricane,FALSE
29.73811022,-95.62478483,928,supermarket,Vishala Grocery,hurricane,FALSE
29.75846935,-95.73107906,929,supermarket,Walmart Neighborhood Market,hurricane,FALSE
29.55632704,-95.41577382,930,supermarket,Walmart Neighborhood Market,hurricane,FALSE
29.89794989,-95.68326348,931,supermarket,Walmart Neighborhood Market,hurricane,FALSE
29.68741731,-95.58607266,932,supermarket,Walmart Neighborhood Market,hurricane,FALSE
29.97801651,-95.19315358,933,supermarket,Walmart Neighborhood Market,hurricane,FALSE
29.9812891,-95.61048888,934,supermarket,Walmart Neighborhood Market,hurricane,FALSE
29.74398482,-95.79302689,935,supermarket,Walmart Neighborhood Market,hurricane,FALSE
30.06932783,-95.21450702,936,supermarket,Walmart Neighborhood Market,hurricane,FALSE
29.844249,-95.64485147,937,supermarket,Walmart Neighborhood Market,hurricane,FALSE
30.06434774,-95.40597497,938,supermarket,Walmart Neighborhood Market,hurricane,FALSE
29.67441745,-95.49548594,939,supermarket,Walmart Neighborhood Market,hurricane,FALSE
29.65700083,-95.53001596,940,supermarket,Walmart Neighborhood Market,hurricane,FALSE
29.94237478,-95.68057191,941,supermarket,Walmart Neighborhood Market,hurricane,FALSE
29.65209483,-95.61739294,942,supermarket,Walmart Neighborhood Market,hurricane,FALSE
29.75861482,-95.7310539,943,supermarket,Walmart Neighborhood Market,hurricane,FALSE
29.49903895,-95.12558437,944,supermarket,Walmart Neighborhood Market,hurricane,FALSE
29.53659785,-95.51671797,945,supermarket,Walmart Supercenter,hurricane,FALSE
29.54592162,-95.23588651,946,supermarket,Walmart Supercenter,hurricane,FALSE
30.13429473,-95.55059293,947,supermarket,Walmart Supercenter,hurricane,FALSE
29.69753483,-95.84126188,948,supermarket,Walmart Supercenter,hurricane,FALSE
29.63080183,-95.23761704,949,supermarket,Walmart Supercenter,hurricane,FALSE
29.67926183,-95.56131095,950,supermarket,Walmart Supercenter,hurricane,FALSE
29.64406422,-95.57304647,951,supermarket,Walmart Supercenter,hurricane,FALSE
29.57333984,-95.28312403,952,supermarket,Walmart Supercenter,hurricane,FALSE
30.00899575,-95.28348001,953,supermarket,Walmart Supercenter,hurricane,FALSE
29.73547981,-95.51168496,954,supermarket,Walmart Supercenter,hurricane,FALSE
29.81716388,-94.89682672,955,supermarket,Walmart Supercenter,hurricane,FALSE
29.73315185,-95.59138456,956,supermarket,Walmart Supercenter,hurricane,FALSE
29.99567175,-95.17643704,957,supermarket,Walmart Supercenter,hurricane,FALSE
29.79320027,-95.56485668,958,supermarket,Walmart Supercenter,hurricane,FALSE
29.89437277,-95.06565907,959,supermarket,Walmart Supercenter,hurricane,FALSE
29.69345285,-95.21037243,960,supermarket,Walmart Supercenter,hurricane,FALSE
30.15146642,-95.22154612,961,supermarket,Walmart Supercenter,hurricane,FALSE
29.61350324,-95.64453042,962,supermarket,Walmart Supercenter,hurricane,FALSE
29.91314876,-95.48675372,963,supermarket,Walmart Supercenter,hurricane,FALSE
29.76803896,-95.17705518,964,supermarket,Walmart Supercenter,hurricane,FALSE
29.72118016,-95.64739496,965,supermarket,Walmart Supercenter,hurricane,FALSE
29.80597101,-95.16518246,966,supermarket,Walmart Supercenter,hurricane,FALSE
29.71615813,-95.31293048,967,supermarket,Walmart Supercenter,hurricane,FALSE
30.0773533,-95.51271331,968,supermarket,Walmart Supercenter,hurricane,FALSE
29.78918719,-95.72221325,969,supermarket,Walmart Supercenter,hurricane,FALSE
29.77281017,-95.40132746,970,supermarket,Walmart Supercenter,hurricane,FALSE
29.8299588,-95.37714501,971,supermarket,Walmart Supercenter,hurricane,FALSE
29.99820625,-95.48419104,972,supermarket,Walmart Supercenter,hurricane,FALSE
30.11449773,-95.38704398,973,supermarket,Walmart Supercenter,hurricane,FALSE
29.72299952,-95.46502102,974,supermarket,Walmart Supercenter,hurricane,FALSE
29.86062588,-95.71643936,975,supermarket,Walmart Supercenter,hurricane,FALSE
29.9365089,-95.25274423,976,supermarket,Walmart Supercenter,hurricane,FALSE
29.53482229,-95.01830395,977,supermarket,Walmart Supercenter,hurricane,FALSE
29.91802348,-95.41561469,978,supermarket,Walmart Supercenter,hurricane,FALSE
29.81890372,-95.76756611,979,supermarket,Walmart Supercenter,hurricane,FALSE
29.69011574,-95.77461779,980,supermarket,Walmart Supercenter,hurricane,FALSE
29.55180976,-95.15925075,981,supermarket,Walmart Supercenter,hurricane,FALSE
29.55811532,-95.38272154,982,supermarket,Walmart Supercenter,hurricane,FALSE
29.5734253,-95.56803472,983,supermarket,Walmart Supercenter,hurricane,FALSE
29.86064779,-95.7164409,984,supermarket,Walmart Supercenter,hurricane,FALSE
29.87696362,-95.65180088,985,supermarket,Walmart Supercenter,hurricane,FALSE
29.55720939,-95.75994428,986,supermarket,Walmart Supercenter,hurricane,FALSE
30.10697197,-95.23361708,987,supermarket,Walmart Supercenter,hurricane,FALSE
29.66690712,-95.1000831,988,supermarket,Walmart Supercenter,hurricane,FALSE
29.78874182,-95.46518797,989,supermarket,Walmart Supercenter,hurricane,FALSE
29.97587894,-95.69785997,990,supermarket,Walmart Supercenter,hurricane,FALSE
30.06468895,-95.43047187,991,supermarket,Walmart Supercenter,hurricane,FALSE
29.78398634,-95.80400715,992,supermarket,Walmart Supercenter,hurricane,FALSE
30.07581385,-95.62492502,993,supermarket,Walmart Supercenter,hurricane,FALSE
29.91993898,-95.60224243,994,supermarket,Walmart Supercenter,hurricane,FALSE
30.01416866,-95.59508369,995,supermarket,Walmart Supercenter,hurricane,FALSE
30.12351693,-95.45774493,996,supermarket,Walmart Supercenter,hurricane,FALSE
29.77626985,-94.97446957,997,supermarket,Walmart Supercenter,hurricane,FALSE
29.85390615,-95.50908994,998,supermarket,Walmart Supercenter,hurricane,FALSE
29.64660682,-95.16136806,999,supermarket,Walmart Supercenter,hurricane,FALSE
29.58262675,-95.58339755,1000,supermarket,Welfresh Market,hurricane,FALSE
29.74146311,-95.45483138,1001,supermarket,Westcreek Market & Deli,hurricane,FALSE
29.73509171,-95.57049975,1002,supermarket,Whole Foods Market,hurricane,FALSE
29.81369739,-95.39813639,1003,supermarket,Whole Foods Market,hurricane,FALSE
29.75787903,-95.39756015,1004,supermarket,Whole Foods Market,hurricane,FALSE
29.70695472,-95.44161543,1005,supermarket,Whole Foods Market,hurricane,FALSE
29.71236773,-95.771856,1006,supermarket,Whole Foods Market,hurricane,FALSE
29.73946224,-95.41812613,1007,supermarket,Whole Foods Market,hurricane,FALSE
29.75246171,-95.49999186,1008,supermarket,Whole Foods Market,hurricane,FALSE
29.60002264,-95.62332104,1009,supermarket,Whole Foods Market,hurricane,FALSE
30.16939648,-95.47048443,1010,supermarket,Whole Foods Market,hurricane,FALSE
29.74958941,-95.46186507,1011,supermarket,Whole Foods Market,hurricane,FALSE
29.66131738,-95.68663052,1012,supermarket,YOGI INDIAN GROCERS,hurricane,FALSE
